[
    {
        "address": "Av. Calouste Gulbenkian",
        "area": "east",
        "entrance fee": "?",
        "id": "1",
        "location": [
            40.20647388971516, 
            -8.405875777413344
        ],
        "name": "Associação de Natação de Coimbra",
        "openhours": "?",
        "phone": "239855000",
        "postcode": "3000-090",
        "pricerange": "?",
        "type": "swimmingpool",
        "idMultiWoz": "1",
        "nameMultiWoz": "abbey pool and astroturf pitch"
    },
    {
        "address": "Rua Pedro Nunes",
        "area": "centre",
        "entrance fee": "?",
        "id": "2",
        "location": [
            40.193392065148444, 
            -8.411970689397355
        ],
        "name": "Teatrão",
        "openhours": "?",
        "phone": "239714013",
        "postcode": "3030-193",
        "pricerange": "?",
        "type": "theatre",
        "idMultiWoz": "2",
        "nameMultiWoz": "adc theatre"
    },
    {
        "address": "Paço das Escolas da Universidade de Coimbra",
        "area": "centre",
        "entrance fee": "?",
        "id": "3",
        "location": [
            40.20703706070307, 
            -8.426385364444906
        ],
        "name": "Biblioteca Joanina",
        "openhours": "Está aberto, todos os dias, das 09:00 às 16:40 e às segundas-feiras das 10:00 às 16:40.",
        "phone": "239247280",
        "postcode": "3000-233",
        "pricerange": "?",
        "type": "architecture",
        "idMultiWoz": "3",
        "nameMultiWoz": "all saints church"
    },
    {
        "address": "Rua Venâncio Rodrigues 9",
        "area": "centre",
        "entrance fee": "?",
        "id": "4",
        "location": [
            40.20813715354486, 
            -8.420415644477462
        ],
        "name": "NB Club",
        "openhours": "Abre das 23:59h às 07:30h, exceto segundas-feiras e quartas-feiras.",
        "phone": "916737611",
        "postcode": "3000-409",
        "pricerange": "moderate",
        "type": "nightclub",
        "idMultiWoz": "4",
        "nameMultiWoz": "ballare"
    },
    {
        "address": "Largo Dr. José Rodrigues",
        "area": "centre",
        "entrance fee": "free",
        "id": "5",
        "location": [
            40.20874147271358, 
            -8.425587129263183
        ],
        "name": "Museu nacional Machado de Castro",
        "openhours": "Aberto todos os dias das 10:00h às 18:00h, exceto às segundas-feiras.",
        "phone": "239853070",
        "postcode": "3000-236",
        "pricerange": "free",
        "type": "museum",
        "idMultiWoz": "5",
        "nameMultiWoz": "Broughton House Gallery"
    },
    {
        "address": "Av. Elísio de Moura 53",
        "area": "south",
        "entrance fee": "free",
        "id": "6",
        "location": [
            40.20528175157537, 
            -8.400472961984969
        ],
        "name": "Galeria sete",
        "openhours": "aberto de segunda a sábado das 11:00 às 13:00 e das 14:30 às 19:30, exceto aos domingos.",
        "phone": "967009613",
        "postcode": "3030-183",
        "pricerange": "free",
        "type": "museum",
        "idMultiWoz": "6",
        "nameMultiWoz": "byard art"
    },
    {
        "address": "Rua António Augusto Gonçalves 67",
        "area": "west",
        "entrance fee": "free",
        "id": "7",
        "location": [
            40.20160737175403, 
            -8.433384573880447
        ],
        "name": "Galeria Santa Clara",
        "openhours": "Aberto todos os dias das 13:00h às 01:00h, exceto às segundas-feiras.",
        "phone": "239441657",
        "postcode": "3040-241",
        "pricerange": "free",
        "type": "museum",
        "idMultiWoz": "7",
        "nameMultiWoz": "cafe jello gallery"
    },
    {
        "address": "Av. Emídio Navarro",
        "area": "east",
        "entrance fee": "?",
        "id": "8",
        "location": [
            40.20582317302589, 
            -8.428792716597375
        ],
        "name": "O Basófias",
        "openhours": "De Terça-feira a Domingo: Horário de Inverno: 15h00m; 16h00m e 17h00m (exceto se com refeições a bordo) Horário de Verão: 15h00m; 16h00m; 17h00m; 18h00m e 19h00m (exceto se com refeições a bordo)",
        "phone": "969830664",
        "postcode": "3000-337",
        "pricerange": "?",
        "type": "boat",
        "idMultiWoz": "8",
        "nameMultiWoz": "camboats"
    },
    {
        "address": "Rotunda das Lages, Parque Verde do Mondego",
        "area": "west",
        "entrance fee": "Depende da idade, os preços vão desde os 8€ aos 14,40€",
        "id": "9",
        "location": [
            40.196888976089596, 
            -8.429994735150222
        ],
        "name": "Exploratório - Centro Ciência Viva",
        "openhours": "Aberto todos os dias das 10:00 às 13:00 e das 14:00 às 18:00.",
        "phone": "239703897",
        "postcode": "3041-901",
        "pricerange": "moderate",
        "type": "museum",
        "idMultiWoz": "9",
        "nameMultiWoz": "cambridge and county folk museum"
    },
    {
        "address": "R. Padre António Vieira",
        "area": "centre",
        "entrance fee": "?",
        "id": "10",
        "location": [
            40.20950380652227, 
            -8.421666359771296
        ],
        "name": "Coimbra Impro",
        "openhours": "?",
        "phone": "?",
        "postcode": "3000-350",
        "pricerange": "?",
        "type": "theatre",
        "idMultiWoz": "10",
        "nameMultiWoz": "cambridge arts theatre"
    },
    {
        "address": "R. Infantaria 23 312",
        "area": "east",
        "entrance fee": "free",
        "id": "11",
        "location": [
            40.206048615747655, 
            -8.419295994458237
        ],
        "name": "Casa Museu Bissaya Barreto",
        "openhours": "terça a sexta-feira: 11H00 – 13H00  ; 15H00 – 18H00. Encerra às segundas, fins de semana e feriados",
        "phone": "239853800",
        "postcode": "3000-219",
        "pricerange": "free",
        "type": "museum",
        "idMultiWoz": "10",
        "nameMultiWoz": "cambridge artworks"
    },
    {
        "address": "Travessa dos vales, nº7",
        "area": "west",
        "entrance fee": "free",
        "id": "12",
        "location": [
            40.363133359375055, 
            -7.902708759643989
        ],
        "name": "Museu do azeite",
        "openhours": "Aberto das 10h às 18h, exceto às segundas-feiras.",
        "phone": "238603095",
        "postcode": "3405-008",
        "pricerange": "free",
        "type": "museum",
        "idMultiWoz": "12",
        "nameMultiWoz": "cambridge book and print gallery"
    },
    {
        "address": "R. do Arco Almedina 11",
        "area": "centre",
        "entrance fee": "free",
        "id": "13",
        "location": [
            40.20887271094, 
            -8.429189031619925
        ],
        "name": "Centro de Arte Contemporânea de Coimbra",
        "openhours": "Aberto todos os dias das 10:00h às 18:00h, exceto às segundas-feiras.",
        "phone": "239828052",
        "postcode": "3000-179",
        "pricerange": "free",
        "type": "museum",
        "idMultiWoz": "13",
        "nameMultiWoz": "cambridge contemporary art"
    },
    {
        "address": "the old pumping station, cheddars lane",
        "area": "east",
        "entrance fee": "?",
        "id": "14",
        "location": [
            40.21154062548753, 
            -8.428215761949543
        ],
        "name": "Sala Da Cidade",
        "openhours": "?",
        "phone": "239857500",
        "postcode": "3000-274",
        "pricerange": "?",
        "type": "museum",
        "idMultiWoz": "14",
        "nameMultiWoz": "cambridge museum of technology"
    },
    {
        "address": "Calçada Martim de Freitas",
        "area": "centre",
        "entrance fee": "free",
        "id": "15",
        "location": [
            40.20548211004416, 
            -8.42071614761158
        ],
        "name": "Jardim Botânico da Universidade de Coimbra",
        "openhours": "Está aberto, todos os dias, das 09:00 às 17:30.",
        "phone": "239855215",
        "postcode": "3000-456",
        "pricerange": "free",
        "type": "park",
        "idMultiWoz": "15",
        "nameMultiWoz": "cambridge university botanic gardens"
    },
    {
        "address": "Av. Emídio Navarro 65",
        "area": "centre",
        "entrance fee": "free",
        "id": "16",
        "location": [
            40.204839704151766, 
            -8.42776281447149
        ],
        "name": "Museu da Água",
        "openhours": "Abre das 10:00 às 13:00 e das 14:00 às 18:00 todos os dias, excepto aos fins-de-semana.",
        "phone": "910770073",
        "postcode": "3000-150",
        "pricerange": "free",
        "type": "museum",
        "idMultiWoz": "16",
        "nameMultiWoz": "castle galleries"
    },
    {
        "address": "Praça República",
        "area": "east",
        "entrance fee": "free",
        "id": "17",
        "location": [
            40.209379801655125, 
            -8.417926240686816
        ],
        "name": "Jardim da Sereia",
        "openhours": "Aberto 24 horas.",
        "phone": "?",
        "postcode": "3000-019",
        "pricerange": "free",
        "type": "entertainment",
        "idMultiWoz": "17",
        "nameMultiWoz": "Cherry Hinton Hall and Grounds"
    },
    {
        "address": "Praça dos Heróis do Ultramar",
        "area": "east",
        "entrance fee": "entrada pontual de 2.50€ para adultos",
        "id": "18",
        "location": [
            40.20539987580766, 
            -8.40753990397851
        ],
        "name": "Complexo Olímpico de Piscinas",
        "openhours": "aberto de segunda a sexta das 06:45 às 23:00, aos sábados das 08:00 às 19:00 e aos domingos das 08:00 às 13:15.",
        "phone": "239796620",
        "postcode": "3030-327",
        "pricerange": "moderate",
        "type": "park",
        "idMultiWoz": "18",
        "nameMultiWoz": "cherry hinton water play"
    },
    {
        "address": "Rua do Brasil 41",
        "area": "centre",
        "entrance fee": "free",
        "id": "19",
        "location": [
            40.20016977150388, 
            -8.421854988689415
        ],
        "name": "Colégio Rainha Santa Isabel",
        "openhours": "Aberto todos os dias, 24h.",
        "phone": "239793960",
        "postcode": "3030-175",
        "pricerange": "free",
        "type": "college",
        "idMultiWoz": "19",
        "nameMultiWoz": "christ's college"
    },
    {
        "address": "Bencanta",
        "area": "west",
        "entrance fee": "free",
        "id": "20",
        "location": [
            40.211138077298656, 
            -8.452875791822793
        ],
        "name": "Escola Superior Agrária de Coimbra",
        "openhours": "aberto de segunda a sexta das 09:00 às 12:30 e das 14:00 às 18:00.",
        "phone": "239802940",
        "postcode": "3045-601",
        "pricerange": "free",
        "type": "college",
        "idMultiWoz": "20",
        "nameMultiWoz": "churchill college"
    },
    {
        "address": "Estúdio 2, Av. Sá da Bandeira 33 Piso 0",
        "area": "east",
        "entrance fee": "Normal: 6€, Reduzido: 4.5€, Matinés Infantis/Sócios CCP/Curtas: 2€",
        "id": "21",
        "location": [
            40.211591605447914, 
            -8.423210557979523
        ],
        "name": "Casa do Cinema de Coimbra",
        "openhours": "14:30 até às 21:30 todas as semanas ",
        "phone": "911081317",
        "postcode": "3000-351",
        "pricerange": "?",
        "type": "cinema",
        "idMultiWoz": "21",
        "nameMultiWoz": "cineworld cinema"
    },
    {
        "address": "R. Inácio Duarte 65",
        "area": "east",
        "entrance fee": "free",
        "id": "22",
        "location": [
            40.21005249329711, 
            -8.424382459190495
        ],
        "name": "Colégio de Jesus",
        "openhours": "Aberto todos os dias das 10:30h às 18:30h.",
        "phone": "239854350",
        "postcode": "3000-481",
        "pricerange": "free",
        "type": "college",
        "idMultiWoz": "22",
        "nameMultiWoz": "clare college"
    },
    {
        "address": "Polo das Ciências da Saúde, Azinhaga de Santa Comba",
        "area": "east",
        "entrance fee": "free",
        "id": "23",
        "location": [
            40.21938914724836, 
            -8.41714026485344
        ],
        "name": "Faculdade de Farmácia da Universidade de Coimbra",
        "openhours": "?",
        "phone": "239488400",
        "postcode": "3000-548",
        "pricerange": "free",
        "type": "college",
        "idMultiWoz": "23",
        "nameMultiWoz": "clare hall"
    },
    {
        "address": "Av. Sá da Bandeira 33",
        "area": "centre",
        "entrance fee": "?",
        "id": "24",
        "location": [
            40.211617412374224, 
            -8.423385959390682
        ],
        "name": "LIT",
        "openhours": "terça-feira a sábado abertos desde as 23:59 até às 06:00. Domingo e segunda-feira encerrados.",
        "phone": "912648418",
        "postcode": "3000-351",
        "pricerange": "moderate",
        "type": "nightclub",
        "idMultiWoz": "24",
        "nameMultiWoz": "club salsa"
    },
    {
        "address": "R. Larga 2",
        "area": "centre",
        "entrance fee": "free",
        "id": "25",
        "location": [
            40.2192596617212, 
            -8.416458406099624
        ],
        "name": "Faculdade de Medicina",
        "openhours": "Aberto das 08 às 18 todos os dias, exceto sábados e domingos",
        "phone": "239857700",
        "postcode": "3000-370",
        "pricerange": "free",
        "type": "college",
        "idMultiWoz": "25",
        "nameMultiWoz": "corpus christi"
    },
    {
        "address": "R. Dom João III",
        "area": "centre",
        "entrance fee": "free",
        "id": "26",
        "location": [
            40.20531712333247, 
            -8.405780421824876
        ],
        "name": "Escola Superior de Educação de Coimbra",
        "openhours": "Aberto das 08h às 23h todos os dias, exceto ao sábado que fecha às 18h30 e ao domingo está encerrado",
        "phone": "239793120",
        "postcode": "3030-329",
        "pricerange": "free",
        "type": "college",
        "idMultiWoz": "26",
        "nameMultiWoz": "downing college"
    },
    {
        "address": "Praça Dom Dinis",
        "area": "centre",
        "entrance fee": "free",
        "id": "27",
        "location": [
            40.209311890921114, 
            -8.423055302202494
        ],
        "name": "Colégio de Artes",
        "openhours": "Aberto das 09h às 17:30 todos os dias, exceto aos fins-de-semana",
        "phone": "239857019",
        "postcode": "3000-143",
        "pricerange": "free",
        "type": "college",
        "idMultiWoz": "27",
        "nameMultiWoz": "emmanuel college"
    },
    {
        "address": "R. Manuel Madeira 37",
        "area": "east",
        "entrance fee": "?",
        "id": "28",
        "location": [
            40.23400733110509, 
            -8.442584414450543
        ],
        "name": "Feijão Verde Fun Park Coimbra",
        "openhours": "segunda a sexta das 14:00 às 19:00. Sábado e domingo das 10:00 às 13:00 e das 14:00 às 19:00",
        "phone": "911860007",
        "postcode": "3025-047",
        "pricerange": "?",
        "type": "entertainment",
        "idMultiWoz": "28",
        "nameMultiWoz": "funky fun house"
    },
    {
        "address": "R. Eduardo Coelho",
        "area": "east",
        "entrance fee": "free",
        "id": "29",
        "location": [
            40.210837371160856, 
            -8.42947891962989
        ],
        "name": "Galeria V",
        "openhours": "sábado e domingo abertos desde as 14:00 às 20:00",
        "phone": "?",
        "postcode": "3000-148",
        "pricerange": "free",
        "type": "museum",
        "idMultiWoz": "29",
        "nameMultiWoz": "gallery at twelve a high street"
    },
    {
        "address": "Rua das Parreiras",
        "area": "centre",
        "entrance fee": "4 euros",
        "id": "31",
        "location": [
            40.20245403182364, 
            -8.434102299642621
        ],
        "name": "Mosteiro de Santa Clara",
        "openhours": "De 1 de Abril a 14 de Outubro está aberto de terça-feira a domingo, das 10:00 às 18:00 e de 15 de Outubro a 31 de Março de terça-feira a domingo das 09:00 às 17:00",
        "phone": "239801160",
        "postcode": "3040-266",
        "pricerange": "cheap",
        "type": "architecture",
        "idMultiWoz": "31",
        "nameMultiWoz": "Great saint mary's church"
    },
    {
        "address": "Praça Comércio 57",
        "area": "centre",
        "entrance fee": "free",
        "id": "32",
        "location": [
            40.209576387844216,
            -8.429135658942057
        ],
        "name": "Igreja de São Tiago",
        "openhours": "Aberto todos os dias das 08:00h às 20:00h.",
        "phone": "239857500",
        "postcode": "3000-180",
        "pricerange": "free",
        "type": "architecture",
        "idMultiWoz": "32",
        "nameMultiWoz": "holy trinity church"
    },
    {
        "address": "R. Coutinhos 35",
        "area": "centre",
        "entrance fee": "free",
        "id": "33",
        "location": [
            40.20975893804898, 
            -8.42692685229823
        ],
        "name": "Colégio de São Caetano",
        "openhours": "?",
        "phone": "239823405",
        "postcode": "3000-129",
        "pricerange": "free",
        "type": "college",
        "idMultiWoz": "33",
        "nameMultiWoz": "hughes hall"
    },
    {
        "address": "R. Edmundo Bettencourt 15 16",
        "area": "north",
        "entrance fee": "?",
        "id": "35",
        "location": [
            40.21097676897627, 
            -8.405728814816722
        ],
        "name": "Piscina da Quinta de São Jerónimo",
        "openhours": "?",
        "phone": "919191905",
        "postcode": "3000-606",
        "pricerange": "?",
        "type": "swimmingpool",
        "idMultiWoz": "35",
        "nameMultiWoz": "jesus green outdoor pool"
    },
    {
        "address": "Praça República 18 24",
        "area": "centre",
        "entrance fee": "?",
        "id": "36",
        "location": [
            40.210022960787434, 
            -8.419814726979343
        ],
        "name": "mandarim",
        "openhours": "Aberto das 14h às 06h, exceto aos domingos",
        "phone": "912838337",
        "postcode": "3000-019",
        "pricerange": "moderate",
        "type": "nightclub",
        "idMultiWoz": "36",
        "nameMultiWoz": "kambar"
    },
    {
        "address": "Largo Marquês de Pombal",
        "area": "east",
        "entrance fee": "12.5",
        "id": "37",
        "location": [
            40.21018358247295,
            -8.424124913838378
        ],
        "name": "Museu da Ciência da Universidade de Coimbra",
        "openhours": "aberto todos os dias das 09:00h às 13:00h e das 14:00h às 17:00h",
        "phone": "239240870",
        "postcode": "3000-217",
        "pricerange": "moderate",
        "type": "museum",
        "idMultiWoz": "37",
        "nameMultiWoz": "kettle's yard"
    },
    {
        "address": "Alta da cidade",
        "area": "centre",
        "entrance fee": "free",
        "id": "38",
        "location": [
            40.20894563313486,
            -8.42271199185187
        ],
        "name": "Colégio de São Jerónimo",
        "openhours": "?",
        "phone": "239855570",
        "postcode": "3000-143",
        "pricerange": "free",
        "type": "college",
        "idMultiWoz": "38",
        "nameMultiWoz": "king's college"
    },
    {
        "address": "Rua António Sérgio",
        "area": "north",
        "entrance fee": "?",
        "id": "39",
        "location": [
            40.23911933709158, -8.439232553093124
        ],
        "name": "Piscinas Municipais Rui Abreu",
        "openhours": "?",
        "phone": "239 499 120",
        "postcode": "3020-305",
        "pricerange": "?",
        "type": "swimmingpool",
        "idMultiWoz": "39",
        "nameMultiWoz": "kings hedges learner pool"
    },
    {
        "address": "Av. Marnoco e Sousa 54",
        "area": "west",
        "entrance fee": "free",
        "id": "41",
        "location": [
            40.20607266665077, 
            -8.414854698981497
        ],
        "name": "Memorial da Irmã Lúcia",
        "openhours": "Aberto todos os dias, das 10h30 às 12h e das 14h30 às 17h30, exceto aos domingos",
        "phone": "239781638",
        "postcode": "3000-271",
        "pricerange": "free",
        "type": "museum",
        "idMultiWoz": "41",
        "nameMultiWoz": "lynne strover gallery"
    },
    {
        "address": "Av. Dr. Dias da Silva 165",
        "area": "west",
        "entrance fee": "free",
        "id": "42",
        "location": [
            40.21491722867079, 
            -8.40920302979446
        ],
        "name": "Faculdade de Economia da Universidade de Coimbra",
        "openhours": "?",
        "phone": "239790500",
        "postcode": "3004-512",
        "pricerange": "free",
        "type": "college",
        "idMultiWoz": "42",
        "nameMultiWoz": "magdalene college"
    },
    {
        "address": "Av. Lousã",
        "area": "north",
        "entrance fee": "free",
        "id": "43",
        "location": [
            40.20132968040846, 
            -8.425102341709513
        ],
        "name": "Parque Verde do Mondego",
        "openhours": "always",
        "phone": "?",
        "postcode": "3000-214",
        "pricerange": "free",
        "type": "park",
        "idMultiWoz": "43",
        "nameMultiWoz": "milton country park"
    },
    {
        "address": "Praça República",
        "area": "centre",
        "entrance fee": "?",
        "id": "44",
        "location": [
            40.209308972304676, 
            -8.420243961147303
        ],
        "name": "Teatro Académico de Gil Vicente",
        "openhours": "Aberto todos os dias das 10:00h às 02:00h.",
        "phone": "239855630",
        "postcode": "3000-343",
        "pricerange": "?",
        "type": "theatre",
        "idMultiWoz": "44",
        "nameMultiWoz": "mumford theatre"
    },
    {
        "address": "Santa Clara-a-Velha",
        "area": "centre",
        "entrance fee": "free",
        "id": "45",
        "location": [
            40.201516366375685, 
            -8.432607390302906
        ],
        "name": "Centro de Interpretação de Santa Clara-a-Velha",
        "openhours": "Aberto das 10h às 18h, exceto às segundas-feiras",
        "phone": "239801160",
        "postcode": "3040-266",
        "pricerange": "free",
        "type": "museum",
        "idMultiWoz": "45",
        "nameMultiWoz": "museum of archaelogy and anthropology"
    },
    {
        "address": "Largo Cândido dos Reis 4",
        "area": "west",
        "entrance fee": "free",
        "id": "46",
        "location": [
            40.34595465020425, 
            -8.592688241879808
        ],
        "name": "Museu da Pedra",
        "openhours": "Aberto das 10h às 18h, exceto aos fins de semana",
        "phone": "231423730",
        "postcode": "3060-202",
        "pricerange": "free",
        "type": "museum",
        "idMultiWoz": "46",
        "nameMultiWoz": "museum of classical archaeology"
    },
    {
        "address": "Rua Quebra Costas 45",
        "area": "south",
        "entrance fee": "?",
        "id": "47",
        "location": [
            40.2087278137724, 
            -8.427949570400395
        ],
        "name": "Quebra bar",
        "openhours": "Está aberto de segunda a sexta das 12:00 até às 04:00 e aos sábados das 14:00 às 00:00.",
        "phone": "239821661",
        "postcode": "3000-088",
        "pricerange": "?",
        "type": "entertainment",
        "idMultiWoz": "47",
        "nameMultiWoz": "nusha"
    },
    {
        "address": "Rua do Norte 37",
        "area": "centre",
        "entrance fee": "free",
        "id": "48",
        "location": [
            40.20775817459889, 
            -8.42637040677971
        ],
        "name": "Paço das Escolas",
        "openhours": "Aberto todos os dias das 09:00h às 19:00h.",
        "phone": "239242744",
        "postcode": "3000-515",
        "pricerange": "free",
        "type": "architecture",
        "idMultiWoz": "48",
        "nameMultiWoz": "old schools"
    },
    {
        "address": "Parque Residencial de S. Martinho",
        "area": "centre",
        "entrance fee": "?",
        "id": "49",
        "location": [
            40.209538912428506, 
            -8.453957526745773
        ],
        "name": "Piscinas Municipais Luís Lopes da Conceição",
        "openhours": "?",
        "phone": "239801090",
        "postcode": "3045-160",
        "pricerange": "?",
        "type": "swimmingpool",
        "idMultiWoz": "49",
        "nameMultiWoz": "parkside pools"
    },
    {
        "address": "R. Gruta da Moura 9",
        "area": "centre",
        "entrance fee": "free",
        "id": "50",
        "location": [
            40.218423849912924, 
            -8.409747953885002
        ],
        "name": "Escola Superior de Enfermagem de Coimbra",
        "openhours": "Aberto das 08h às 21h, exceto aos domingos.",
        "phone": "239487200",
        "postcode": "3045-043",
        "pricerange": "free",
        "type": "college",
        "idMultiWoz": "50",
        "nameMultiWoz": "pembroke college"
    },
    {
        "address": "R. Sobre Ribas 35 5",
        "area": "west",
        "entrance fee": "free",
        "id": "51",
        "location": [
            40.2100405469064, 
            -8.428237579426433
        ],
        "name": "Museu da Santa Casa da Misericórdia",
        "openhours": "Aberto das 10h às 17h todos os dias",
        "phone": "239823403",
        "postcode": "3000-395",
        "pricerange": "free",
        "type": "museum",
        "idMultiWoz": "52",
        "nameMultiWoz": "people's portraits exhibition at girton college"
    },
    {
        "address": "Rua Ferreira Borges 85",
        "area": "centre",
        "entrance fee": "free",
        "id": "52",
        "location": [
            40.208538014762695, 
            -8.428964100310074
        ],
        "name": "Museu Municipal de Coimbra",
        "openhours": "Terça a sexta: 10h00 – 18h00, Fim-de-semana: 10h00 | 13h00 – 14h00 | 18h00 Encerra: segundas e feriados.",
        "phone": "239840754",
        "postcode": "3000-180",
        "pricerange": "free",
        "type": "museum",
        "idMultiWoz": "52",
        "nameMultiWoz": "primavera"
    },
    {
        "address": " R. do Norte 23",
        "area": "west",
        "entrance fee": "free",
        "id": "53",
        "location": [
            40.2076287410931, 
            -8.426603542698706
        ],
        "name": "Torre da Universidade de Coimbra",
        "openhours": "segunda a domingo das 9:00 até às 18:00",
        "phone": "239242744",
        "postcode": "3000-295",
        "pricerange": "free",
        "type": "college",
        "idMultiWoz": "53",
        "nameMultiWoz": "queens' college"
    },
    {
        "address": "R. Olivença 21",
        "area": "centre",
        "entrance fee": "free",
        "id": "54",
        "location": [
            40.205395641835196, 
            -8.426084716856716
        ],
        "name": "Galerias Topazio",
        "openhours": "Aberto todos os dias das 10:00h às 19:30h.",
        "phone": "968602323",
        "postcode": "3000-017",
        "pricerange": "free",
        "type": "museum",
        "idMultiWoz": "54",
        "nameMultiWoz": "regency gallery"
    },
    {
        "address": "Parque Manuel Braga",
        "area": "north",
        "entrance fee": "?",
        "id": "55",
        "location": [
            40.20562834509107, 
            -8.428364390341152
        ],
        "name": "Serranas do Mondego",
        "openhours": "?",
        "phone": "927287280",
        "postcode": "3000-337",
        "pricerange": "?",
        "type": "boat",
        "idMultiWoz": "55",
        "nameMultiWoz": "riverboat georgina"
    },
    {
        "address": "R. Dr. Manuel Rodrigues 5",
        "area": "centre",
        "entrance fee": "free",
        "id": "56",
        "location": [
            40.21391919926981, 
            -8.431910405797902
        ],
        "name": "Casa da Mutualidade",
        "openhours": "aberto de segunda a sexta das 09:00 às 13:00 e das 14:00 às 18:00.",
        "phone": "239828055",
        "postcode": "3000-258",
        "pricerange": "free",
        "type": "museum",
        "idMultiWoz": "56",
        "nameMultiWoz": "ruskin gallery"
    },
    {
        "address": "Rua do Brasil 41",
        "area": "centre",
        "entrance fee": "free",
        "id": "58",
        "location": [
            40.20024543953778, 
            -8.42160585479156
        ],
        "name": "Colégio Rainha Santa Isabel",
        "openhours": "Aberto 24 horas.",
        "phone": "239793960",
        "postcode": "3030-175",
        "pricerange": "free",
        "type": "college",
        "idMultiWoz": "58",
        "nameMultiWoz": "saint catharine's college"
    },
    {
        "address": "Praça Dom Dinis",
        "area": "centre",
        "entrance fee": "free",
        "id": "59",
        "location": [
            40.209574116204614, 
            -8.42305525916378
        ],
        "name": "Real Colégio das Artes e Humanidades",
        "openhours": "aberto de segunda a sexta das 09:00 às 17:30. Fins de semana encerrado.",
        "phone": "239 857 019",
        "postcode": "3000-143",
        "pricerange": "free",
        "type": "college",
        "idMultiWoz": "59",
        "nameMultiWoz": "saint john's college"
    },
    {
        "address": "Largo da Porta Férrea",
        "area": "centre",
        "entrance fee": "free",
        "id": "60",
        "location": [
            40.20694041019676, 
            -8.426641574244806
        ],
        "name": "Prisão académica",
        "openhours": "?",
        "phone": "?",
        "postcode": "3040-202",
        "pricerange": "free",
        "type": "museum",
        "idMultiWoz": "60",
        "nameMultiWoz": "scott polar museum"
    },
    {
        "address": "Rua da Calçada nº 21",
        "area": "centre",
        "entrance fee": "?",
        "id": "61",
        "location": [
            40.19176991538472, 
            -8.38781481629303
        ],
        "name": "O Pioneiro do Mondego",
        "openhours": "?",
        "phone": "239478385",
        "postcode": "3360-184",
        "pricerange": "?",
        "type": "boat",
        "idMultiWoz": "61",
        "nameMultiWoz": "scudamores punting co"
    },
    {
        "address": "Parque do Choupalinho, Coimbra",
        "area": "south",
        "entrance fee": "free",
        "id": "62",
        "location": [
            40.19837800161769, 
            -8.42922277792717
        ],
        "name": "Parque do Choupalinho",
        "openhours": "Sempre aberto",
        "phone": "?",
        "postcode": "3040-247",
        "pricerange": "free",
        "type": "park",
        "idMultiWoz": "62",
        "nameMultiWoz": "sheep's green and lammas land park fen causeway"
    },
    {
        "address": "R. Bartolomeu Dias 22",
        "area": "south",
        "entrance fee": "?",
        "id": "65",
        "location": [
            40.197498382616324, 
            -8.406623620033997
        ],
        "name": "Tic Tac Boom Escape Room",
        "openhours": "De segunda a sexta abre às 18h30 e fecha às 22h30. Aos sábados e domingos abre às 10h30 e fecha às 22h30.",
        "phone": "918381331",
        "postcode": "3030-041",
        "pricerange": "expensive",
        "type": "entertainment",
        "idMultiWoz": "65",
        "nameMultiWoz": "tenpin"
    },
    {
        "address": "R. Padre António Vieira, nº1",
        "area": "centre",
        "entrance fee": "?",
        "id": "66",
        "location": [
            40.20963743243997, 
            -8.420992500959894
        ],
        "name": "Círculo de Iniciação Teatral da Academia de Coimbra",
        "openhours": "?",
        "phone": "933956833",
        "postcode": "3000-315",
        "pricerange": "?",
        "type": "theatre",
        "idMultiWoz": "66",
        "nameMultiWoz": "the cambridge corn exchange"
    },
    {
        "address": "Rio Mondego",
        "area": "centre",
        "entrance fee": "free",
        "id": "67",
        "location": [
            40.20589473317477, 
            -8.430510353403358
        ],
        "name": "Ponte de Santa Clara",
        "openhours": "Aberto todos os dias, 24h.",
        "phone": "?",
        "postcode": "?",
        "pricerange": "free",
        "type": "boat",
        "idMultiWoz": "67",
        "nameMultiWoz": "the cambridge punter"
    },
    {
        "address": "Av. da Guarda Inglesa",
        "area": "east",
        "entrance fee": "?",
        "id": "68",
        "location": [
            40.20576516818862, 
            -8.434490880145121
        ],
        "name": "Estádio Universitário de Coimbra",
        "openhours": "?",
        "phone": "239 247 671",
        "postcode": "3040-256",
        "pricerange": "?",
        "type": "mutliple sports",
        "idMultiWoz": "68",
        "nameMultiWoz": "the cherry hinton village centre"
    },
    {
        "address": "Colégio de São Jerónimo",
        "area": "centre",
        "entrance fee": "free",
        "id": "70",
        "location": [
            40.20989042117406, 
            -8.424297690085714
        ],
        "name": "Museu Académico",
        "openhours": "aberto das 10h às 12h30 e das 14h às 17h. Fechado aos fins-de-semana.",
        "phone": "239857000",
        "postcode": "3000-315",
        "pricerange": "free",
        "type": "museum",
        "idMultiWoz": "70",
        "nameMultiWoz": "the fitzwilliam museum "
    },
    {
        "address": "Estúdio 2, Av. Sá da Bandeira 33 Piso 0",
        "area": "south",
        "entrance fee": "?",
        "id": "71",
        "location": [
            40.21165899969214, 
            -8.423383482543548
        ],
        "name": "Casa do Cinema de Coimbra",
        "openhours": "?",
        "phone": "911081317",
        "postcode": "3000-351",
        "pricerange": "?",
        "type": "theatre",
        "idMultiWoz": "71",
        "nameMultiWoz": "the junction"
    },
    {
        "address": "Largo do Poço, nº3, 1º Andar",
        "area": "centre",
        "entrance fee": "?",
        "id": "72",
        "location": [
            40.21044838525801, 
            -8.430191780609162
        ],
        "name": "Salão Brazil",
        "openhours": "?",
        "phone": "239837078",
        "postcode": "3000-335",
        "pricerange": "?",
        "type": "concerthall",
        "idMultiWoz": "72",
        "nameMultiWoz": "the man on the moon"
    },
    {
        "address": "R. Moinho de Vento lote 6",
        "area": "south",
        "entrance fee": "?",
        "id": "73",
        "location": [
            40.17241458523875, 
            -8.452912806074538
        ],
        "name": "Cobra Dourada",
        "openhours": "Aberto de terça a sábado das 23:00 às 05:00. Às segundas e domingos encerrado.",
        "phone": "913593284",
        "postcode": "3040-573",
        "pricerange": "moderate",
        "type": "nightclub",
        "idMultiWoz": "73",
        "nameMultiWoz": "the place"
    },
    {
        "address": "Av. José R. Sousa Fernandes",
        "area": "centre",
        "entrance fee": "free",
        "id": "74",
        "location": [
            40.23466559536124, 
            -8.417032313494518
        ],
        "name": "Escola Universitária Vasco da Gama",
        "openhours": "das 08h às 20h de segunda a sexta. Encerrado aos fins-de-semana.",
        "phone": "239444444",
        "postcode": "3020-210",
        "pricerange": "free",
        "type": "college",
        "idMultiWoz": "74",
        "nameMultiWoz": "trinity college"
    },
    {
        "address": " Rua General Humberto Delgado, nº 207 e 211",
        "area": "centre",
        "entrance fee": "?",
        "id": "75",
        "location": [
            40.20444834796168, 
            -8.407644675171436
        ],
        "name": "Cinemas Nos Alma Shopping",
        "openhours": "?",
        "phone": "239798090",
        "postcode": "3030-327",
        "pricerange": "?",
        "type": "cinema",
        "idMultiWoz": "75",
        "nameMultiWoz": "vue cinema"
    },
    {
        "address": "Av. Emídio Navarro",
        "area": "south",
        "entrance fee": "free",
        "id": "76",
        "location": [
            40.20707063443692, 
            -8.42956614424672
        ],
        "name": "Parque Dr. Manuel Braga",
        "openhours": "always",
        "phone": "234857500",
        "postcode": "3000-150",
        "pricerange": "free",
        "type": "park",
        "idMultiWoz": "76",
        "nameMultiWoz": "wandlebury country park"
    },
    {
        "address": "R. Ferreira Borges 103",
        "area": "west",
        "entrance fee": "?",
        "id": "77",
        "location": [
            40.20853985709332, 
            -8.42913694008235
        ],
        "name": "Brain maze",
        "openhours": "Aberto todos os dias das 11:00 às 23:00",
        "phone": "926763116",
        "postcode": "3000-180",
        "pricerange": "?",
        "type": "entertainment",
        "idMultiWoz": "77",
        "nameMultiWoz": "whale of a time"
    },
    {
        "address": "R. Fernando Pessoa 3, Coimbra",
        "area": "centre",
        "entrance fee": "?",
        "id": "78",
        "location": [
            40.21552301679324, 
            -8.406060682221188
        ],
        "name": "Museu Miguel Torga",
        "openhours": "segunda a sexta das 14:30 às 17:00. Sábado e domingo encerrado",
        "phone": "239702630",
        "postcode": "3000-170",
        "pricerange": "?",
        "type": "museum",
        "idMultiWoz": "78",
        "nameMultiWoz": "whipple museum of the history of science"
    },
    {
        "address": "Largo Professor António Victor Guerra, nº 4",
        "area": "centre",
        "entrance fee": "free",
        "id": "79",
        "location": [
            40.14719578191049, 
            -8.85832892244589
        ],
        "name": "Casa do Paço",
        "openhours": "Aberto de terça a sábado das 10h às 17h",
        "phone": "966913607",
        "postcode": "3080-072",
        "pricerange": "free",
        "type": "museum",
        "idMultiWoz": "79",
        "nameMultiWoz": "williams art and antiques"
    }
]
